[
  {
    "name": "成都双子塔",
    "location_lng": 104.064759,
    "location_lat": 30.582588,
    "description": "冰花,元宵",
    "category": "商务住宅;楼宇;商务写字楼",
    "address": "交子北一路与交子大道交叉口东60米",
    "opening_hours": "09:00-17:00",
    "ticket_price": 0.0,
    "images": []
  },
  {
    "name": "锦城公园",
    "location_lng": 104.052308,
    "location_lat": 30.570449,
    "description": [],
    "category": "风景名胜;公园广场;公园",
    "address": "益州大道北段1666号",
    "opening_hours": "09:00-17:00",
    "ticket_price": 0.0,
    "images": []
  },
  {
    "name": "成都江滩公园",
    "location_lng": 104.080905,
    "location_lat": 30.555514,
    "description": [],
    "category": "风景名胜;公园广场;公园",
    "address": "世纪城路",
    "opening_hours": "09:00-17:00",
    "ticket_price": 0.0,
    "images": []
  },
  {
    "name": "桂溪生态公园",
    "location_lng": 104.067319,
    "location_lat": 30.563054,
    "description": "煮茶",
    "category": "风景名胜;公园广场;公园",
    "address": "天府一街附近",
    "opening_hours": "09:00-17:00",
    "ticket_price": 0.0,
    "images": []
  },
  {
    "name": "铁像寺",
    "location_lng": 104.049006,
    "location_lat": 30.557092,
    "description": [],
    "category": "风景名胜;风景名胜;寺庙道观",
    "address": "铁像寺路66号",
    "opening_hours": "09:00-17:00",
    "ticket_price": 0.0,
    "images": []
  },
  {
    "name": "铁像寺水街",
    "location_lng": 104.049709,
    "location_lat": 30.5575,
    "description": "麻辣香锅,音乐餐吧,串串香,特色小吃,煮茶,下午茶",
    "category": "风景名胜;风景名胜;国家级景点",
    "address": "石羊街道铁像寺路88号",
    "opening_hours": "09:00-17:00",
    "ticket_price": 0.0,
    "images": []
  },
  {
    "name": "生机之塔",
    "location_lng": 104.070337,
    "location_lat": 30.566902,
    "description": [],
    "category": "风景名胜;风景名胜;风景名胜",
    "address": "G4202成都绕城高速与濯锦立交桥交叉口北120米",
    "opening_hours": "09:00-17:00",
    "ticket_price": 0.0,
    "images": []
  },
  {
    "name": "锦城湖",
    "location_lng": 104.03991,
    "location_lat": 30.573865,
    "description": [],
    "category": "风景名胜;公园广场;公园",
    "address": "锦城大道1333号",
    "opening_hours": "09:00-17:00",
    "ticket_price": 0.0,
    "images": []
  },
  {
    "name": "双子塔夜景打卡点",
    "location_lng": 104.062737,
    "location_lat": 30.582428,
    "description": [],
    "category": "风景名胜;风景名胜;风景名胜",
    "address": "交子大道与交子南二路交叉口东40米",
    "opening_hours": "09:00-17:00",
    "ticket_price": 0.0,
    "images": []
  },
  {
    "name": "天府绿道",
    "location_lng": 104.076812,
    "location_lat": 30.56275,
    "description": "油菜花",
    "category": "风景名胜;风景名胜;风景名胜",
    "address": "世纪城东路与世纪城路交叉口北100米",
    "opening_hours": "09:00-17:00",
    "ticket_price": 0.0,
    "images": []
  },
  {
    "name": "大源中央公园",
    "location_lng": 104.049182,
    "location_lat": 30.549059,
    "description": "下午茶",
    "category": "风景名胜;公园广场;公园",
    "address": "天府二街777号(大源地铁站D口旁)",
    "opening_hours": "09:00-17:00",
    "ticket_price": 0.0,
    "images": []
  },
  {
    "name": "中和湿地公园",
    "location_lng": 104.095422,
    "location_lat": 30.565879,
    "description": [],
    "category": "风景名胜;公园广场;公园",
    "address": "朝阳横街北50米",
    "opening_hours": "09:00-17:00",
    "ticket_price": 0.0,
    "images": []
  },
  {
    "name": "UPARK公园",
    "location_lng": 104.039721,
    "location_lat": 30.554564,
    "description": [],
    "category": "购物服务;购物相关场所;购物相关场所",
    "address": "富华北路666号",
    "opening_hours": "09:00-17:00",
    "ticket_price": 0.0,
    "images": []
  },
  {
    "name": "东湖公园",
    "location_lng": 104.087899,
    "location_lat": 30.616051,
    "description": "鸽子",
    "category": "风景名胜;公园广场;公园",
    "address": "二环路东五段301号(东湖公园地铁站A口旁)",
    "opening_hours": "09:00-17:00",
    "ticket_price": 0.0,
    "images": []
  },
  {
    "name": "桂溪生态公园西区",
    "location_lng": 104.062735,
    "location_lat": 30.562903,
    "description": [],
    "category": "风景名胜;公园广场;公园",
    "address": "天府一街桂溪生态公园(西侧)",
    "opening_hours": "09:00-17:00",
    "ticket_price": 0.0,
    "images": []
  },
  {
    "name": "望江楼公园",
    "location_lng": 104.092217,
    "location_lat": 30.629277,
    "description": "元宵",
    "category": "风景名胜;公园广场;公园",
    "address": "望江路30号",
    "opening_hours": "09:00-17:00",
    "ticket_price": 0.0,
    "images": []
  },
  {
    "name": "成都武侯祠博物馆",
    "location_lng": 104.047992,
    "location_lat": 30.646168,
    "description": "小吃街,四川小吃,特色小吃",
    "category": "科教文化服务;博物馆;博物馆",
    "address": "武侯祠大街231号",
    "opening_hours": "09:00-17:00",
    "ticket_price": 0.0,
    "images": []
  },
  {
    "name": "桂溪生态公园东区",
    "location_lng": 104.073271,
    "location_lat": 30.562257,
    "description": [],
    "category": "风景名胜;风景名胜相关;旅游景点",
    "address": "桂溪街道桂溪生态公园内(东侧)",
    "opening_hours": "09:00-17:00",
    "ticket_price": 0.0,
    "images": []
  },
  {
    "name": "锦里古街",
    "location_lng": 104.049828,
    "location_lat": 30.645994,
    "description": "小吃街,肥肠粉,串串香,三大炮,风味小吃,特色小吃,伤心凉粉,钵钵鸡,糖油果子",
    "category": "风景名胜;风景名胜;风景名胜",
    "address": "武侯祠大街231号附1号",
    "opening_hours": "09:00-17:00",
    "ticket_price": 0.0,
    "images": []
  },
  {
    "name": "三圣花乡旅游区",
    "location_lng": 104.13371,
    "location_lat": 30.571996,
    "description": "油菜花,下午茶",
    "category": "风景名胜;风景名胜;国家级景点",
    "address": "三圣街道红沙村联合一组136号",
    "opening_hours": "09:00-17:00",
    "ticket_price": 0.0,
    "images": []
  },
  {
    "name": "环球中心海洋乐园",
    "location_lng": 104.062862,
    "location_lat": 30.569822,
    "description": "泡汤",
    "category": "体育休闲服务;休闲场所;游乐场",
    "address": "天府大道北段1700号新世纪环球中心1层",
    "opening_hours": "09:00-17:00",
    "ticket_price": 0.0,
    "images": []
  },
  {
    "name": "宽窄巷子景区",
    "location_lng": 104.053307,
    "location_lat": 30.663869,
    "description": "兔头,串串香,特色小吃,麻辣兔头,钟水饺,小吃街,担担面,钵钵鸡,糖油果子,三大炮,蛋烘糕",
    "category": "购物服务;特色商业街;特色商业街|风景名胜;风景名胜相关;旅游景点",
    "address": "金河路口宽窄巷子(宽窄巷子地铁站B口步行60米)",
    "opening_hours": "09:00-17:00",
    "ticket_price": 0.0,
    "images": []
  },
  {
    "name": "交子金融博物馆",
    "location_lng": 104.076625,
    "location_lat": 30.582839,
    "description": [],
    "category": "科教文化服务;博物馆;博物馆",
    "address": "锦云东二巷",
    "opening_hours": "09:00-17:00",
    "ticket_price": 0.0,
    "images": []
  },
  {
    "name": "哪吒雕像",
    "location_lng": 104.061277,
    "location_lat": 30.582065,
    "description": [],
    "category": "风景名胜;风景名胜;风景名胜",
    "address": "交子大道与交子南二路交叉口西南100米",
    "opening_hours": "09:00-17:00",
    "ticket_price": 0.0,
    "images": []
  },
  {
    "name": "近慈寺",
    "location_lng": 104.047054,
    "location_lat": 30.574105,
    "description": [],
    "category": "风景名胜;风景名胜;寺庙道观",
    "address": "剑南大道北段899号",
    "opening_hours": "09:00-17:00",
    "ticket_price": 0.0,
    "images": []
  },
  {
    "name": "立巢航空博物馆",
    "location_lng": 104.060695,
    "location_lat": 30.569163,
    "description": [],
    "category": "科教文化服务;博物馆;博物馆",
    "address": "天府大道1700号环球中心W3西商业",
    "opening_hours": "09:00-17:00",
    "ticket_price": 0.0,
    "images": []
  },
  {
    "name": "人民公园",
    "location_lng": 104.057641,
    "location_lat": 30.65699,
    "description": "煮茶,钟水饺",
    "category": "风景名胜;风景名胜;国家级景点",
    "address": "小南街8号(人民公园地铁站B口步行240米)",
    "opening_hours": "09:00-17:00",
    "ticket_price": 0.0,
    "images": []
  },
  {
    "name": "天府广场",
    "location_lng": 104.065861,
    "location_lat": 30.657401,
    "description": "双流老妈兔头,蹄花,老火锅,担担面,肥肠粉,小吃街,特色小吃,牛肉饼,冒菜,鸳鸯锅,美蛙,兔头,串串香,仙豆糕,麻辣烫",
    "category": "风景名胜;公园广场;城市广场",
    "address": "人民南路一段86号(天府广场地铁站出入口步行50米)",
    "opening_hours": "09:00-17:00",
    "ticket_price": 0.0,
    "images": []
  },
  {
    "name": "东郊记忆",
    "location_lng": 104.122906,
    "location_lat": 30.668697,
    "description": "小吃街,下午茶,音乐酒吧,蛋烘糕,煮茶,热狗",
    "category": "风景名胜;风景名胜;国家级景点",
    "address": "跳蹬河街道跳蹬河街道建设南支路1号",
    "opening_hours": "09:00-17:00",
    "ticket_price": 0.0,
    "images": []
  },
  {
    "name": "锦城湖2号湖区",
    "location_lng": 104.043112,
    "location_lat": 30.574282,
    "description": [],
    "category": "风景名胜;公园广场;公园",
    "address": "锦城大道1333号锦城湖内(东侧)",
    "opening_hours": "09:00-17:00",
    "ticket_price": 0.0,
    "images": []
  },
  {
    "name": "三和老爷车博物馆",
    "location_lng": 104.04128,
    "location_lat": 30.597103,
    "description": [],
    "category": "科教文化服务;博物馆;博物馆",
    "address": "机场路新加坡工业园区新园南一路2号",
    "opening_hours": "09:00-17:00",
    "ticket_price": 0.0,
    "images": []
  },
  {
    "name": "西蜀廊桥古镇",
    "location_lng": 104.072992,
    "location_lat": 30.558344,
    "description": [],
    "category": "风景名胜;风景名胜;风景名胜|餐饮服务;中餐厅;中餐厅",
    "address": "桂溪街道成都市高新区世纪城路166号附280号",
    "opening_hours": "09:00-17:00",
    "ticket_price": 0.0,
    "images": []
  },
  {
    "name": "成都极地海洋公园",
    "location_lng": 104.073457,
    "location_lat": 30.494758,
    "description": "烤肠,热带鱼,鱼尾,汉堡,炸土豆,抄手,小吃街",
    "category": "风景名胜;公园广场;水族馆",
    "address": "天府新区海洋路68号",
    "opening_hours": "09:00-17:00",
    "ticket_price": 0.0,
    "images": []
  },
  {
    "name": "南湖公园",
    "location_lng": 104.048558,
    "location_lat": 30.499675,
    "description": "鸽子",
    "category": "风景名胜;公园广场;公园",
    "address": "华阳街道南湖北路与南湖东路交叉路口东北角",
    "opening_hours": "09:00-17:00",
    "ticket_price": 0.0,
    "images": []
  },
  {
    "name": "文殊院",
    "location_lng": 104.072527,
    "location_lat": 30.675418,
    "description": "斋饭,素斋,小吃街,特色小吃",
    "category": "风景名胜;风景名胜;寺庙道观",
    "address": "文殊院街66号(文殊院地铁站K口步行400米)",
    "opening_hours": "09:00-17:00",
    "ticket_price": 0.0,
    "images": []
  },
  {
    "name": "成都博物馆",
    "location_lng": 104.063749,
    "location_lat": 30.657297,
    "description": "牛肉饼,老妈蹄花,肉饼,茶咖啡,小吃街",
    "category": "科教文化服务;博物馆;博物馆",
    "address": "小河街1号",
    "opening_hours": "09:00-17:00",
    "ticket_price": 0.0,
    "images": []
  },
  {
    "name": "塔子山公园",
    "location_lng": 104.124023,
    "location_lat": 30.6344,
    "description": "烧烤场,鸽子,烤肠,胡萝卜",
    "category": "风景名胜;公园广场;公园",
    "address": "迎晖路222号(塔子山公园地铁站D口步行280米)",
    "opening_hours": "09:00-17:00",
    "ticket_price": 0.0,
    "images": []
  },
  {
    "name": "隅上田园交子百业园",
    "location_lng": 104.026294,
    "location_lat": 30.57908,
    "description": "油菜花,茄子",
    "category": "风景名胜;风景名胜相关;旅游景点|商务住宅;商务住宅相关;商务住宅相关",
    "address": "益新大道1277号(三元地铁站C口步行500米)",
    "opening_hours": "09:00-17:00",
    "ticket_price": 0.0,
    "images": []
  },
  {
    "name": "和平社区广场",
    "location_lng": 104.073147,
    "location_lat": 30.603539,
    "description": [],
    "category": "风景名胜;公园广场;城市广场",
    "address": "天仁北一街与天和路交汇处西北50米",
    "opening_hours": "09:00-17:00",
    "ticket_price": 0.0,
    "images": []
  },
  {
    "name": "成都大熊猫繁育研究基地",
    "location_lng": 104.138176,
    "location_lat": 30.740573,
    "description": "蛋烘糕,团子,热干面,竹笋,粑粑",
    "category": "风景名胜;风景名胜;国家级景点",
    "address": "熊猫大道1375号",
    "opening_hours": "09:00-17:00",
    "ticket_price": 0.0,
    "images": []
  },
  {
    "name": "美洲四季滑雪场",
    "location_lng": 104.031617,
    "location_lat": 30.577959,
    "description": [],
    "category": "体育休闲服务;运动场馆;滑雪场",
    "address": "锦城大道1999号",
    "opening_hours": "09:00-17:00",
    "ticket_price": 0.0,
    "images": []
  },
  {
    "name": "成都杜甫草堂博物馆",
    "location_lng": 104.028514,
    "location_lat": 30.660153,
    "description": "麻婆豆腐,春暖花开,面面,双人餐,小吃街,杏仁豆腐",
    "category": "科教文化服务;博物馆;博物馆",
    "address": "青华路37号",
    "opening_hours": "09:00-17:00",
    "ticket_price": 0.0,
    "images": []
  },
  {
    "name": "大慈寺",
    "location_lng": 104.083791,
    "location_lat": 30.654243,
    "description": [],
    "category": "风景名胜;风景名胜;寺庙道观",
    "address": "大慈寺路21-23号(春熙路地铁站C口步行360米)",
    "opening_hours": "09:00-17:00",
    "ticket_price": 0.0,
    "images": []
  },
  {
    "name": "江家艺苑",
    "location_lng": 104.124284,
    "location_lat": 30.575931,
    "description": [],
    "category": "风景名胜;风景名胜;风景名胜|体育休闲服务;体育休闲服务场所;体育休闲服务场所",
    "address": "幸福路163号",
    "opening_hours": "09:00-17:00",
    "ticket_price": 0.0,
    "images": []
  },
  {
    "name": "基督教光音堂",
    "location_lng": 104.049037,
    "location_lat": 30.56084,
    "description": [],
    "category": "风景名胜;风景名胜;教堂",
    "address": "天府一街888号",
    "opening_hours": "09:00-17:00",
    "ticket_price": 0.0,
    "images": []
  },
  {
    "name": "锦江公园",
    "location_lng": 104.079753,
    "location_lat": 30.588508,
    "description": [],
    "category": "风景名胜;公园广场;公园",
    "address": "锦江大道与科华南路辅路交叉口东140米",
    "opening_hours": "09:00-17:00",
    "ticket_price": 0.0,
    "images": []
  },
  {
    "name": "博雅城市广场",
    "location_lng": 104.076536,
    "location_lat": 30.515331,
    "description": [],
    "category": "风景名胜;公园广场;公园广场",
    "address": "雅和北二路和新裕路交汇处(广都地铁站C口步行460米)",
    "opening_hours": "09:00-17:00",
    "ticket_price": 0.0,
    "images": []
  },
  {
    "name": "梵木Flying国际文创公园",
    "location_lng": 104.02561,
    "location_lat": 30.606688,
    "description": [],
    "category": "商务住宅;产业园区;产业园区",
    "address": "太平寺西路3号",
    "opening_hours": "09:00-17:00",
    "ticket_price": 0.0,
    "images": []
  },
  {
    "name": "幸福梅林",
    "location_lng": 104.136296,
    "location_lat": 30.58435,
    "description": "柴火鸡,下午茶,自助烧烤",
    "category": "风景名胜;风景名胜;国家级景点",
    "address": "锦江大道",
    "opening_hours": "09:00-17:00",
    "ticket_price": 0.0,
    "images": []
  },
  {
    "name": "天府芙蓉园",
    "location_lng": 103.985809,
    "location_lat": 30.591603,
    "description": "油菜花",
    "category": "风景名胜;风景名胜;风景名胜",
    "address": "簇马路一段69号",
    "opening_hours": "09:00-17:00",
    "ticket_price": 0.0,
    "images": []
  },
  {
    "name": "锦城广场",
    "location_lng": 104.068,
    "location_lat": 30.56891,
    "description": [],
    "category": "风景名胜;公园广场;城市广场",
    "address": "天府大道北段1656号",
    "opening_hours": "09:00-17:00",
    "ticket_price": 0.0,
    "images": []
  },
  {
    "name": "四川大学博物馆",
    "location_lng": 104.090711,
    "location_lat": 30.636303,
    "description": [],
    "category": "科教文化服务;博物馆;博物馆",
    "address": "望江路19号",
    "opening_hours": "09:00-17:00",
    "ticket_price": 0.0,
    "images": []
  },
  {
    "name": "芙蓉岛公园",
    "location_lng": 104.084723,
    "location_lat": 30.55571,
    "description": [],
    "category": "风景名胜;公园广场;公园",
    "address": "熊家桥路55号",
    "opening_hours": "09:00-17:00",
    "ticket_price": 0.0,
    "images": []
  },
  {
    "name": "青羊宫",
    "location_lng": 104.042609,
    "location_lat": 30.661542,
    "description": "斋饭",
    "category": "风景名胜;风景名胜;寺庙道观",
    "address": "一环路西二段9号(青羊宫地铁站C口向后步行90米)",
    "opening_hours": "09:00-17:00",
    "ticket_price": 0.0,
    "images": []
  },
  {
    "name": "成都动物园",
    "location_lng": 104.106009,
    "location_lat": 30.710131,
    "description": "烤肠,烤肉,粑粑,竹笋,冒菜,带鱼,大包,娃娃鱼,爆米花,火鸡,小吃街,胡萝卜,米线",
    "category": "风景名胜;公园广场;动物园",
    "address": "昭觉寺南路234号(动物园地铁站A口步行460米)",
    "opening_hours": "09:00-17:00",
    "ticket_price": 0.0,
    "images": []
  },
  {
    "name": "锦城湖4号湖区",
    "location_lng": 104.051545,
    "location_lat": 30.565324,
    "description": [],
    "category": "风景名胜;公园广场;公园",
    "address": "锦城湖立交附近",
    "opening_hours": "09:00-17:00",
    "ticket_price": 0.0,
    "images": []
  },
  {
    "name": "水井坊锦江体育公园",
    "location_lng": 104.112802,
    "location_lat": 30.597659,
    "description": [],
    "category": "风景名胜;公园广场;公园",
    "address": "委党校斜对面",
    "opening_hours": "09:00-17:00",
    "ticket_price": 0.0,
    "images": []
  },
  {
    "name": "新川之心公园东区",
    "location_lng": 104.094261,
    "location_lat": 30.511847,
    "description": [],
    "category": "风景名胜;风景名胜相关;旅游景点",
    "address": "锦和路与新裕路交汇处",
    "opening_hours": "09:00-17:00",
    "ticket_price": 0.0,
    "images": []
  },
  {
    "name": "四川博物院",
    "location_lng": 104.034127,
    "location_lat": 30.660792,
    "description": "双面",
    "category": "科教文化服务;博物馆;博物馆",
    "address": "青华路5号",
    "opening_hours": "09:00-17:00",
    "ticket_price": 0.0,
    "images": []
  },
  {
    "name": "安仁古镇",
    "location_lng": 103.62403,
    "location_lat": 30.505134,
    "description": "豆花,血旺,醪糟,特色小吃,肥肠血旺,甜水面",
    "category": "风景名胜;风景名胜;国家级景点",
    "address": "安仁镇",
    "opening_hours": "09:00-17:00",
    "ticket_price": 0.0,
    "images": []
  },
  {
    "name": "大邑县刘氏庄园博物馆",
    "location_lng": 103.628042,
    "location_lat": 30.505007,
    "description": "血旺,青团,小吃街,醪糟",
    "category": "科教文化服务;博物馆;博物馆",
    "address": "安仁镇金桂街15号",
    "opening_hours": "09:00-17:00",
    "ticket_price": 0.0,
    "images": []
  },
  {
    "name": "洛带古镇",
    "location_lng": 104.328376,
    "location_lat": 30.636191,
    "description": "特色小吃,伤心凉粉,大鱼海棠",
    "category": "风景名胜;风景名胜;国家级景点",
    "address": "三峨街",
    "opening_hours": "09:00-17:00",
    "ticket_price": 0.0,
    "images": []
  },
  {
    "name": "燃灯古寺",
    "location_lng": 104.330469,
    "location_lat": 30.63977,
    "description": [],
    "category": "风景名胜;风景名胜;寺庙道观",
    "address": "八角井街118-130号",
    "opening_hours": "09:00-17:00",
    "ticket_price": 0.0,
    "images": []
  },
  {
    "name": "洛带古镇五凤楼",
    "location_lng": 104.327734,
    "location_lat": 30.636073,
    "description": [],
    "category": "风景名胜;风景名胜;国家级景点",
    "address": "江西街48号",
    "opening_hours": "09:00-17:00",
    "ticket_price": 0.0,
    "images": []
  },
  {
    "name": "杜甫草堂-茅屋故居",
    "location_lng": 104.027718,
    "location_lat": 30.660655,
    "description": [],
    "category": "风景名胜;风景名胜相关;旅游景点",
    "address": "草堂路28号成都杜甫草堂博物馆内",
    "opening_hours": "09:00-17:00",
    "ticket_price": 0.0,
    "images": []
  },
  {
    "name": "万佛楼",
    "location_lng": 104.030156,
    "location_lat": 30.659202,
    "description": [],
    "category": "风景名胜;风景名胜相关;旅游景点",
    "address": "草堂路28号成都杜甫草堂博物馆内",
    "opening_hours": "09:00-17:00",
    "ticket_price": 0.0,
    "images": []
  },
  {
    "name": "黄龙溪古镇",
    "location_lng": 103.970525,
    "location_lat": 30.317805,
    "description": "一根面,特色小吃",
    "category": "风景名胜;风景名胜;国家级景点",
    "address": "黄龙溪镇黄金路70号",
    "opening_hours": "09:00-17:00",
    "ticket_price": 0.0,
    "images": []
  },
  {
    "name": "街子古镇",
    "location_lng": 103.550022,
    "location_lat": 30.813673,
    "description": "油糕,叶儿粑,醪糟,素斋,特色小吃,冻粑,麻饼,糍粑,萝卜干,甜水面",
    "category": "风景名胜;风景名胜;风景名胜",
    "address": "惠丰路1号",
    "opening_hours": "09:00-17:00",
    "ticket_price": 0.0,
    "images": []
  },
  {
    "name": "石经寺",
    "location_lng": 104.348063,
    "location_lat": 30.502284,
    "description": "斋饭",
    "category": "风景名胜;风景名胜;寺庙道观",
    "address": "茶店镇石经村10组56号",
    "opening_hours": "09:00-17:00",
    "ticket_price": 0.0,
    "images": []
  },
  {
    "name": "金沙遗址博物馆",
    "location_lng": 104.012634,
    "location_lat": 30.681709,
    "description": "特色小吃,元宵,沙面,小吃街,烤串",
    "category": "科教文化服务;博物馆;博物馆",
    "address": "金沙遗址路2号(金沙博物馆地铁站C口步行200米)",
    "opening_hours": "09:00-17:00",
    "ticket_price": 0.0,
    "images": []
  },
  {
    "name": "五凤溪古镇",
    "location_lng": 104.483152,
    "location_lat": 30.605714,
    "description": "糖油果子,特色小吃,烩面,螃蟹,鲶鱼,特色菜,油烫鹅,油条,麻鸭",
    "category": "风景名胜;风景名胜;国家级景点",
    "address": "五凤镇五凤溪景区",
    "opening_hours": "09:00-17:00",
    "ticket_price": 0.0,
    "images": []
  },
  {
    "name": "灌县古城",
    "location_lng": 103.620015,
    "location_lat": 30.998552,
    "description": "甜皮鸭,甜水面,一碗面,醪糟,特色小吃,小吃街,蹄花,米线,冰粉,火锅粉",
    "category": "风景名胜;风景名胜相关;旅游景点",
    "address": "灌口街道灌县古城西街32号",
    "opening_hours": "09:00-17:00",
    "ticket_price": 0.0,
    "images": []
  },
  {
    "name": "都江堰文庙",
    "location_lng": 103.617566,
    "location_lat": 31.001583,
    "description": "素面",
    "category": "风景名胜;风景名胜;寺庙道观",
    "address": "灌口街道公园路青城山·都江堰风景名胜区内",
    "opening_hours": "09:00-17:00",
    "ticket_price": 0.0,
    "images": []
  },
  {
    "name": "宝光桂湖文化旅游区宝光寺",
    "location_lng": 104.160855,
    "location_lat": 30.831969,
    "description": "素菜,素斋",
    "category": "风景名胜;风景名胜;寺庙道观",
    "address": "宝光街81号",
    "opening_hours": "09:00-17:00",
    "ticket_price": 0.0,
    "images": []
  },
  {
    "name": "宝光寺-罗汉堂",
    "location_lng": 104.161597,
    "location_lat": 30.831999,
    "description": [],
    "category": "风景名胜;风景名胜;寺庙道观",
    "address": "宝光街81号宝光寺",
    "opening_hours": "09:00-17:00",
    "ticket_price": 0.0,
    "images": []
  },
  {
    "name": "昭觉寺",
    "location_lng": 104.105956,
    "location_lat": 30.708103,
    "description": [],
    "category": "风景名胜;风景名胜;寺庙道观",
    "address": "昭青路333号",
    "opening_hours": "09:00-17:00",
    "ticket_price": 0.0,
    "images": []
  },
  {
    "name": "元通古镇",
    "location_lng": 103.623717,
    "location_lat": 30.733669,
    "description": "蹄花,油花,煮茶,凉拌鸡,特色小吃,槽子糕,春卷,肥肠血旺,脑花,豆花,叶儿粑",
    "category": "风景名胜;风景名胜;国家级景点",
    "address": "元通镇聚源村号",
    "opening_hours": "09:00-17:00",
    "ticket_price": 0.0,
    "images": []
  },
  {
    "name": "平乐古镇",
    "location_lng": 103.33049,
    "location_lat": 30.34014,
    "description": "奶汤面,钵钵鸡",
    "category": "风景名胜;风景名胜;国家级景点",
    "address": "兴新街139号",
    "opening_hours": "09:00-17:00",
    "ticket_price": 0.0,
    "images": []
  },
  {
    "name": "三道堰古镇",
    "location_lng": 103.915886,
    "location_lat": 30.867179,
    "description": "苗苗鱼",
    "category": "风景名胜;风景名胜;风景名胜",
    "address": "永宁路南一段",
    "opening_hours": "09:00-17:00",
    "ticket_price": 0.0,
    "images": []
  },
  {
    "name": "金龙长城",
    "location_lng": 104.371392,
    "location_lat": 30.678673,
    "description": "鸡公,大鱼海棠",
    "category": "风景名胜;风景名胜;风景名胜",
    "address": "樱花路",
    "opening_hours": "09:00-17:00",
    "ticket_price": 0.0,
    "images": []
  },
  {
    "name": "木兰寺",
    "location_lng": 104.193163,
    "location_lat": 30.777697,
    "description": [],
    "category": "风景名胜;风景名胜;寺庙道观",
    "address": "木兰社区200号",
    "opening_hours": "09:00-17:00",
    "ticket_price": 0.0,
    "images": []
  },
  {
    "name": "临邛古城",
    "location_lng": 103.464359,
    "location_lat": 30.412851,
    "description": "奶汤面,钵钵鸡",
    "category": "风景名胜;风景名胜;省级景点",
    "address": "大北街与步行街交叉口西100米",
    "opening_hours": "09:00-17:00",
    "ticket_price": 0.0,
    "images": []
  },
  {
    "name": "新场古镇",
    "location_lng": 103.426114,
    "location_lat": 30.531377,
    "description": "肥肠血旺,血旺",
    "category": "风景名胜;风景名胜;国家级景点",
    "address": "新场镇安出路与下正街交叉口",
    "opening_hours": "09:00-17:00",
    "ticket_price": 0.0,
    "images": []
  },
  {
    "name": "普照寺",
    "location_lng": 103.559976,
    "location_lat": 30.846233,
    "description": [],
    "category": "风景名胜;风景名胜;寺庙道观",
    "address": "大观街道青城外山",
    "opening_hours": "09:00-17:00",
    "ticket_price": 0.0,
    "images": []
  },
  {
    "name": "海窝子古镇",
    "location_lng": 103.852653,
    "location_lat": 31.121621,
    "description": "麻饼,油烫鹅,油糕,鹅肉,特色小吃",
    "category": "风景名胜;风景名胜;风景名胜",
    "address": "鹿坪街11-12号",
    "opening_hours": "09:00-17:00",
    "ticket_price": 0.0,
    "images": []
  },
  {
    "name": "温江文庙",
    "location_lng": 103.836856,
    "location_lat": 30.697802,
    "description": [],
    "category": "风景名胜;风景名胜;寺庙道观",
    "address": "柳城街道文庙街6号",
    "opening_hours": "09:00-17:00",
    "ticket_price": 0.0,
    "images": []
  },
  {
    "name": "西来古镇",
    "location_lng": 103.510391,
    "location_lat": 30.300515,
    "description": "特色小吃,豆花",
    "category": "风景名胜;风景名胜;风景名胜",
    "address": "寿卧路",
    "opening_hours": "09:00-17:00",
    "ticket_price": 0.0,
    "images": []
  },
  {
    "name": "白云寺",
    "location_lng": 103.893037,
    "location_lat": 30.484176,
    "description": "斋饭",
    "category": "风景名胜;风景名胜;寺庙道观",
    "address": "柳河路1号",
    "opening_hours": "09:00-17:00",
    "ticket_price": 0.0,
    "images": []
  },
  {
    "name": "怀远古镇",
    "location_lng": 103.522278,
    "location_lat": 30.743614,
    "description": "叶儿粑",
    "category": "风景名胜;风景名胜;国家级景点",
    "address": "怀远镇",
    "opening_hours": "09:00-17:00",
    "ticket_price": 0.0,
    "images": []
  },
  {
    "name": "夹关古镇",
    "location_lng": 103.21195,
    "location_lat": 30.2554,
    "description": "奶汤面,肥肠,豆花,钵钵鸡,肉汤圆,酸辣粉,鳝鱼",
    "category": "风景名胜;风景名胜;风景名胜",
    "address": "麻柳树客栈西",
    "opening_hours": "09:00-17:00",
    "ticket_price": 0.0,
    "images": []
  },
  {
    "name": "泰安古镇",
    "location_lng": 103.490619,
    "location_lat": 30.920645,
    "description": "鱼香肉丝,玉米,小吃街,腊排骨,泰安鱼,煮茶,特色小吃",
    "category": "风景名胜;风景名胜;风景名胜",
    "address": "青城后山泰安古镇中段驿道街232号",
    "opening_hours": "09:00-17:00",
    "ticket_price": 0.0,
    "images": []
  },
  {
    "name": "琴台故径",
    "location_lng": 104.045772,
    "location_lat": 30.660197,
    "description": [],
    "category": "风景名胜;风景名胜;风景名胜|购物服务;特色商业街;特色商业街",
    "address": "琴台路205号(通惠门地铁站E口步行100米)",
    "opening_hours": "09:00-17:00",
    "ticket_price": 0.0,
    "images": []
  },
  {
    "name": "皇城清真寺",
    "location_lng": 104.062909,
    "location_lat": 30.65671,
    "description": [],
    "category": "风景名胜;风景名胜;回教寺",
    "address": "小河街2号附2号",
    "opening_hours": "09:00-17:00",
    "ticket_price": 0.0,
    "images": []
  },
  {
    "name": "猫猫庙",
    "location_lng": 103.545295,
    "location_lat": 30.953146,
    "description": "血旺",
    "category": "体育休闲服务;体育休闲服务场所;体育休闲服务场所",
    "address": "玉堂镇赵公山社区龙凤村赵公祖庙内",
    "opening_hours": "09:00-17:00",
    "ticket_price": 0.0,
    "images": []
  },
  {
    "name": "唐昌古镇-崇槐里",
    "location_lng": 103.82253,
    "location_lat": 30.926022,
    "description": "特色小吃,牛肉",
    "category": "风景名胜;风景名胜;风景名胜",
    "address": "唐昌镇文庙",
    "opening_hours": "09:00-17:00",
    "ticket_price": 0.0,
    "images": []
  },
  {
    "name": "洛带古镇-博客楼",
    "location_lng": 104.329585,
    "location_lat": 30.635014,
    "description": "大鱼海棠",
    "category": "风景名胜;风景名胜;风景名胜",
    "address": "洛带古镇",
    "opening_hours": "09:00-17:00",
    "ticket_price": 0.0,
    "images": []
  },
  {
    "name": "都江堰景区秦堰楼",
    "location_lng": 103.609572,
    "location_lat": 31.006703,
    "description": [],
    "category": "风景名胜;风景名胜相关;旅游景点",
    "address": "都江堰景区内百花岭路",
    "opening_hours": "09:00-17:00",
    "ticket_price": 0.0,
    "images": []
  },
  {
    "name": "赵公祖庙",
    "location_lng": 103.545191,
    "location_lat": 30.953023,
    "description": [],
    "category": "风景名胜;风景名胜;寺庙道观",
    "address": "玉堂街道赵公山社区",
    "opening_hours": "09:00-17:00",
    "ticket_price": 0.0,
    "images": []
  },
  {
    "name": "都江堰景区二王庙",
    "location_lng": 103.61021,
    "location_lat": 31.005773,
    "description": [],
    "category": "风景名胜;风景名胜;寺庙道观",
    "address": "龙池镇百花岭路54号",
    "opening_hours": "09:00-17:00",
    "ticket_price": 0.0,
    "images": []
  },
  {
    "name": "悦来古镇",
    "location_lng": 103.448721,
    "location_lat": 30.618948,
    "description": "叶儿粑,豆花",
    "category": "风景名胜;风景名胜;风景名胜",
    "address": "悦来镇",
    "opening_hours": "09:00-17:00",
    "ticket_price": 0.0,
    "images": []
  },
  {
    "name": "慈云寺",
    "location_lng": 104.486984,
    "location_lat": 30.738001,
    "description": "斋饭",
    "category": "风景名胜;风景名胜;风景名胜",
    "address": "境内龙泉山脉中段金堂县云顶石城风景区内(北侧)",
    "opening_hours": "09:00-17:00",
    "ticket_price": 0.0,
    "images": []
  },
  {
    "name": "新都钟楼",
    "location_lng": 104.17073,
    "location_lat": 30.823431,
    "description": [],
    "category": "风景名胜;风景名胜相关;旅游景点",
    "address": "桂湖东路与蓉都大道南一段交叉路口西南角",
    "opening_hours": "09:00-17:00",
    "ticket_price": 0.0,
    "images": []
  },
  {
    "name": "开化寺",
    "location_lng": 103.359184,
    "location_lat": 30.68913,
    "description": [],
    "category": "风景名胜;风景名胜;寺庙道观",
    "address": "雾山乡",
    "opening_hours": "09:00-17:00",
    "ticket_price": 0.0,
    "images": []
  },
  {
    "name": "崇州唐人街牌坊",
    "location_lng": 103.695566,
    "location_lat": 30.632207,
    "description": [],
    "category": "风景名胜;风景名胜;风景名胜",
    "address": "世纪大道704号",
    "opening_hours": "09:00-17:00",
    "ticket_price": 0.0,
    "images": []
  },
  {
    "name": "火井古镇",
    "location_lng": 103.237389,
    "location_lat": 30.382277,
    "description": [],
    "category": "风景名胜;风景名胜相关;旅游景点",
    "address": "桂花街与康庄路交叉口西北80米",
    "opening_hours": "09:00-17:00",
    "ticket_price": 0.0,
    "images": []
  },
  {
    "name": "老君阁",
    "location_lng": 103.560715,
    "location_lat": 30.90794,
    "description": "紫气东来",
    "category": "风景名胜;风景名胜相关;旅游景点",
    "address": "青城山镇青城山路168号青城山景区",
    "opening_hours": "09:00-17:00",
    "ticket_price": 0.0,
    "images": []
  },
  {
    "name": "般若寺",
    "location_lng": 103.718866,
    "location_lat": 31.061036,
    "description": "斋饭",
    "category": "风景名胜;风景名胜;寺庙道观",
    "address": "蒲阳街道花溪村一组",
    "opening_hours": "09:00-17:00",
    "ticket_price": 0.0,
    "images": []
  },
  {
    "name": "客家杏花村",
    "location_lng": 104.365656,
    "location_lat": 30.709439,
    "description": [],
    "category": "风景名胜;风景名胜;省级景点|地名地址信息;普通地名;村庄级地名",
    "address": "福洪镇杏花村",
    "opening_hours": "09:00-17:00",
    "ticket_price": 0.0,
    "images": []
  },
  {
    "name": "三学禅院",
    "location_lng": 104.495148,
    "location_lat": 30.857962,
    "description": [],
    "category": "风景名胜;风景名胜;寺庙道观",
    "address": "005乡道与天圣路交叉口西南约100米栖贤乡",
    "opening_hours": "09:00-17:00",
    "ticket_price": 0.0,
    "images": []
  },
  {
    "name": "唐昌古镇文庙广场",
    "location_lng": 103.822962,
    "location_lat": 30.92744,
    "description": [],
    "category": "风景名胜;公园广场;城市广场",
    "address": "唐昌镇",
    "opening_hours": "09:00-17:00",
    "ticket_price": 0.0,
    "images": []
  },
  {
    "name": "郫县古城遗址",
    "location_lng": 103.925857,
    "location_lat": 30.901271,
    "description": [],
    "category": "风景名胜;风景名胜;风景名胜",
    "address": "蜀汉西街邻城家园北侧",
    "opening_hours": "09:00-17:00",
    "ticket_price": 0.0,
    "images": []
  },
  {
    "name": "高堂寺",
    "location_lng": 103.466225,
    "location_lat": 30.583281,
    "description": [],
    "category": "风景名胜;风景名胜;寺庙道观",
    "address": "023乡道鲁山沟西北650米",
    "opening_hours": "09:00-17:00",
    "ticket_price": 0.0,
    "images": []
  },
  {
    "name": "开照寺",
    "location_lng": 104.48387,
    "location_lat": 30.858074,
    "description": [],
    "category": "风景名胜;风景名胜;寺庙道观",
    "address": "栖贤乡栖贤街道三学寺",
    "opening_hours": "09:00-17:00",
    "ticket_price": 0.0,
    "images": []
  }
]